{
  "version": "2026.07.02",
  "entries": [
    { "province": "北京市", "city": "北京市", "district": "东城区", "longitude": 116.40, "latitude": 39.90, "name": "北京市" },
    { "province": "上海市", "city": "上海市", "district": "黄浦区", "longitude": 121.47, "latitude": 31.23, "name": "上海市" },
    { "province": "天津市", "city": "天津市", "district": "和平区", "longitude": 117.20, "latitude": 39.13, "name": "天津市" },
    { "province": "重庆市", "city": "重庆市", "district": "渝中区", "longitude": 106.55, "latitude": 29.56, "name": "重庆市" },
    { "province": "广东省", "city": "广州市", "district": "越秀区", "longitude": 113.26, "latitude": 23.13, "name": "广州" },
    { "province": "广东省", "city": "深圳市", "district": "福田区", "longitude": 114.06, "latitude": 22.55, "name": "深圳市" },
    { "province": "浙江省", "city": "杭州市", "district": "上城区", "longitude": 120.15, "latitude": 30.28, "name": "杭州市" },
    { "province": "浙江省", "city": "宁波市", "district": "海曙区", "longitude": 121.54, "latitude": 29.87, "name": "宁波市" },
    { "province": "江苏省", "city": "南京市", "district": "玄武区", "longitude": 118.78, "latitude": 32.04, "name": "南京市" },
    { "province": "江苏省", "city": "苏州市", "district": "姑苏区", "longitude": 120.62, "latitude": 31.31, "name": "苏州市" },
    { "province": "四川省", "city": "成都市", "district": "锦江区", "longitude": 104.06, "latitude": 30.67, "name": "成都市" },
    { "province": "湖北省", "city": "武汉市", "district": "江岸区", "longitude": 114.31, "latitude": 30.60, "name": "武汉市" },
    { "province": "河南省", "city": "郑州市", "district": "二七区", "longitude": 113.66, "latitude": 34.76, "name": "郑州市" },
    { "province": "山东省", "city": "济南市", "district": "历下区", "longitude": 117.00, "latitude": 36.66, "name": "济南市" },
    { "province": "山东省", "city": "青岛市", "district": "市南区", "longitude": 120.33, "latitude": 36.07, "name": "青岛市" },
    { "province": "江苏省", "city": "无锡市", "district": "梁溪区", "longitude": 120.30, "latitude": 31.57, "name": "无锡市" },
    { "province": "山东省", "city": "青岛市", "district": "市北区", "longitude": 120.33, "latitude": 36.07, "name": "青岛市" },
    { "province": "福建省", "city": "福州市", "district": "台江区", "longitude": 119.30, "latitude": 26.08, "name": "福州市" },
    { "province": "福建省", "city": "厦门市", "district": "思明区", "longitude": 118.09, "latitude": 24.48, "name": "厦门市" },
    { "province": "河北省", "city": "石家庄市", "district": "长安区", "longitude": 114.48, "latitude": 38.04, "name": "石家庄市" },
    { "province": "山西省", "city": "太原市", "district": "小店区", "longitude": 112.56, "latitude": 37.87, "name": "太原市" },
    { "province": "陕西省", "city": "西安市", "district": "雁塔区", "longitude": 108.95, "latitude": 34.27, "name": "西安市" },
    { "province": "安徽省", "city": "合肥市", "district": "瑶海区", "longitude": 117.23, "latitude": 31.82, "name": "合肥市" },
    { "province": "江西省", "city": "南昌市", "district": "东湖区", "longitude": 115.86, "latitude": 28.68, "name": "南昌市" },
    { "province": "湖南省", "city": "长沙市", "district": "芙蓉区", "longitude": 112.94, "latitude": 28.23, "name": "长沙市" },
    { "province": "吉林省", "city": "长春市", "district": "南关区", "longitude": 125.35, "latitude": 43.88, "name": "长春市" },
    { "province": "黑龙江省", "city": "哈尔滨市", "district": "南岗区", "longitude": 126.63, "latitude": 45.75, "name": "哈尔滨市" },
    { "province": "辽宁省", "city": "沈阳市", "district": "和平区", "longitude": 123.43, "latitude": 41.80, "name": "沈阳市" },
    { "province": "辽宁省", "city": "大连市", "district": "中山区", "longitude": 121.62, "latitude": 38.92, "name": "大连市" },
    { "province": "广东省", "city": "珠海市", "district": "香洲区", "longitude": 113.57, "latitude": 22.27, "name": "珠海市" },
    { "province": "广东省", "city": "佛山市", "district": "禅城区", "longitude": 113.12, "latitude": 23.04, "name": "佛山市" },
    { "province": "江西省", "city": "赣州市", "district": "章贡区", "longitude": 114.93, "latitude": 25.85, "name": "赣州市" },
    { "province": "四川省", "city": "绵阳市", "district": "涪城区", "longitude": 104.74, "latitude": 31.46, "name": "绵阳市" },
    { "province": "新疆维吾尔自治区", "city": "乌鲁木齐市", "district": "天山区", "longitude": 87.62, "latitude": 43.82, "name": "乌鲁木齐市" },
    { "province": "青海省", "city": "西宁市", "district": "城西区", "longitude": 101.78, "latitude": 36.62, "name": "西宁市" },
    { "province": "甘肃省", "city": "兰州市", "district": "城关区", "longitude": 103.82, "latitude": 36.06, "name": "兰州市" },
    { "province": "宁夏回族自治区", "city": "银川市", "district": "兴庆区", "longitude": 106.27, "latitude": 38.47, "name": "银川市" },
    { "province": "内蒙古自治区", "city": "呼和浩特市", "district": "新城区", "longitude": 111.75, "latitude": 40.84, "name": "呼和浩特市" },
    { "province": "海南省", "city": "海口市", "district": "秀英区", "longitude": 110.20, "latitude": 20.02, "name": "海口市" },
    { "province": "香港特别行政区", "city": "香港", "district": "中西区", "longitude": 114.17, "latitude": 22.28, "name": "香港特别行政区" },
    { "province": "澳门特别行政区", "city": "澳门", "district": "花地玛堂区", "longitude": 113.54, "latitude": 22.20, "name": "澳门特别行政区" },
    { "province": "台湾省", "city": "台北市", "district": "中正区", "longitude": 121.52, "latitude": 25.05, "name": "台湾" }
  ]
}
